{
"type": "FeatureCollection",
"name": "Bhotekoshi cat II",
"crs": { "type": "name", "properties": { "name": "urn:ogc:def:crs:OGC:1.3:CRS84" } },
"features": [
{ "type": "Feature", "properties": { "Name": "Rangmusa", "Category": "II", "HHs": "15", "Latitide": 27.975439277300001, "Longitude": 85.959266665300007, "Nep_name": "/fªd';f", "Ward": 2, "Cat_nep": "@", "Ward_Nep": "@", "CatI_HHs": "0", "CatII_HHs": 15, "CatIII_HHs": null, "P_D__HHs": "1" }, "geometry": { "type": "Point", "coordinates": [ 85.95926666533758, 27.975439277332896 ] } },
{ "type": "Feature", "properties": { "Name": "Liping", "Category": "II", "HHs": "23", "Latitide": 27.9720919309, "Longitude": 85.960101300900007, "Nep_name": "lnlkª", "Ward": 2, "Cat_nep": "@", "Ward_Nep": "@", "CatI_HHs": "0", "CatII_HHs": 23, "CatIII_HHs": null, "P_D__HHs": null }, "geometry": { "type": "Point", "coordinates": [ 85.960101300943066, 27.972091930905176 ] } },
{ "type": "Feature", "properties": { "Name": "Gurung Gaun", "Category": "II", "HHs": "11", "Latitide": 27.958164271499999, "Longitude": 85.953046774100002, "Nep_name": "u'?ª ufpmF", "Ward": 2, "Cat_nep": "@", "Ward_Nep": "@", "CatI_HHs": "0", "CatII_HHs": 11, "CatIII_HHs": null, "P_D__HHs": null }, "geometry": { "type": "Point", "coordinates": [ 85.953046774097302, 27.958164271457452 ] } },
{ "type": "Feature", "properties": { "Name": "Chhermang", "Category": "II", "HHs": "11", "Latitide": 27.960245704999998, "Longitude": 85.947248027599997, "Nep_name": "5]df{ª", "Ward": 2, "Cat_nep": "@", "Ward_Nep": "@", "CatI_HHs": "0", "CatII_HHs": 11, "CatIII_HHs": null, "P_D__HHs": null }, "geometry": { "type": "Point", "coordinates": [ 85.947248027626003, 27.960245704972298 ] } },
{ "type": "Feature", "properties": { "Name": "Takpasa", "Category": "II", "HHs": "6", "Latitide": 27.964823748299999, "Longitude": 85.9472952996, "Nep_name": "tfSkf;f", "Ward": 2, "Cat_nep": "@", "Ward_Nep": "@", "CatI_HHs": "0", "CatII_HHs": 6, "CatIII_HHs": null, "P_D__HHs": "2" }, "geometry": { "type": "Point", "coordinates": [ 85.947295299584667, 27.964823748289842 ] } },
{ "type": "Feature", "properties": { "Name": "Niusipakha", "Category": "II", "HHs": "19", "Latitide": 27.954728686700001, "Longitude": 85.949046622500006, "Nep_name": "lgpl;kfvf", "Ward": 2, "Cat_nep": "@", "Ward_Nep": "@", "CatI_HHs": "0", "CatII_HHs": 19, "CatIII_HHs": null, "P_D__HHs": "1" }, "geometry": { "type": "Point", "coordinates": [ 85.949046622542667, 27.954728686684231 ] } },
{ "type": "Feature", "properties": { "Name": "Nadung Tamang Gaun", "Category": "II", "HHs": "15", "Latitide": 27.956258680099999, "Longitude": 85.943790393200004, "Nep_name": "gfb'ª tfdfª ufpmF", "Ward": 2, "Cat_nep": "@", "Ward_Nep": "@", "CatI_HHs": "0", "CatII_HHs": 15, "CatIII_HHs": null, "P_D__HHs": "1" }, "geometry": { "type": "Point", "coordinates": [ 85.943790393180777, 27.956258680110977 ] } },
{ "type": "Feature", "properties": { "Name": "Khama kharka", "Category": "II", "HHs": "3", "Latitide": 27.9568166637, "Longitude": 85.946150818500001, "Nep_name": "vfdvs{", "Ward": 2, "Cat_nep": "@", "Ward_Nep": "@", "CatI_HHs": "0", "CatII_HHs": 3, "CatIII_HHs": null, "P_D__HHs": null }, "geometry": { "type": "Point", "coordinates": [ 85.946150818498509, 27.956816663716836 ] } },
{ "type": "Feature", "properties": { "Name": "Majuwa", "Category": "II", "HHs": "2", "Latitide": 27.958019719199999, "Longitude": 85.942541652000003, "Nep_name": "dh'jf", "Ward": 2, "Cat_nep": "@", "Ward_Nep": "@", "CatI_HHs": "0", "CatII_HHs": 2, "CatIII_HHs": null, "P_D__HHs": "1" }, "geometry": { "type": "Point", "coordinates": [ 85.942541652044866, 27.958019719201371 ] } },
{ "type": "Feature", "properties": { "Name": "Nadung Chetan Kharka", "Category": "II", "HHs": "2", "Latitide": 27.958246719800002, "Longitude": 85.939666390699998, "Nep_name": "gfb'ª r]tg vs{", "Ward": 2, "Cat_nep": "@", "Ward_Nep": "@", "CatI_HHs": "0", "CatII_HHs": 0, "CatIII_HHs": null, "P_D__HHs": null }, "geometry": { "type": "Point", "coordinates": [ 85.939666390680728, 27.958246719781336 ] } },
{ "type": "Feature", "properties": { "Name": "Koplang", "Category": "II", "HHs": "22", "Latitide": 27.949056715899999, "Longitude": 85.951346292300002, "Nep_name": "sf]Knfª", "Ward": 2, "Cat_nep": "@", "Ward_Nep": "@", "CatI_HHs": "0", "CatII_HHs": 22, "CatIII_HHs": null, "P_D__HHs": "3" }, "geometry": { "type": "Point", "coordinates": [ 85.951346292289216, 27.949056715912501 ] } },
{ "type": "Feature", "properties": { "Name": "Guru Rimboche Kuna (Tatopani)", "Category": "II", "HHs": null, "Latitide": 27.944668038, "Longitude": 85.948603487599996, "Nep_name": "u'? l/Daf]r] s'gf -tftf]kfgL_", "Ward": 2, "Cat_nep": "@", "Ward_Nep": "@", "CatI_HHs": "0", "CatII_HHs": 0, "CatIII_HHs": null, "P_D__HHs": null }, "geometry": { "type": "Point", "coordinates": [ 85.948603487587789, 27.944668038033331 ] } },
{ "type": "Feature", "properties": { "Name": "Tamang Gaun", "Category": "II", "HHs": "49", "Latitide": 27.942926272600001, "Longitude": 85.945178253500004, "Nep_name": "tfdfª ufpmF", "Ward": 2, "Cat_nep": "@", "Ward_Nep": "@", "CatI_HHs": "0", "CatII_HHs": 49, "CatIII_HHs": null, "P_D__HHs": "5" }, "geometry": { "type": "Point", "coordinates": [ 85.945178253469862, 27.942926272577054 ] } },
{ "type": "Feature", "properties": { "Name": "Naya Basti", "Category": "II", "HHs": "17", "Latitide": 27.938487103, "Longitude": 85.949033580099993, "Nep_name": "gofF a:tL", "Ward": 3, "Cat_nep": "@", "Ward_Nep": "#", "CatI_HHs": "0", "CatII_HHs": 17, "CatIII_HHs": null, "P_D__HHs": null }, "geometry": { "type": "Point", "coordinates": [ 85.949033580121835, 27.938487103031068 ] } },
{ "type": "Feature", "properties": { "Name": "Tartung", "Category": "II", "HHs": "5", "Latitide": 27.937613840800001, "Longitude": 85.954574155100005, "Nep_name": "tft'{ª", "Ward": 3, "Cat_nep": "@", "Ward_Nep": "#", "CatI_HHs": "0", "CatII_HHs": 5, "CatIII_HHs": null, "P_D__HHs": null }, "geometry": { "type": "Point", "coordinates": [ 85.954574155074042, 27.937613840841902 ] } },
{ "type": "Feature", "properties": { "Name": "Bokchen", "Category": "II", "HHs": "12", "Latitide": 27.933386629200001, "Longitude": 85.948688657399998, "Nep_name": "af]Sr]g", "Ward": 3, "Cat_nep": "@", "Ward_Nep": "#", "CatI_HHs": "0", "CatII_HHs": 12, "CatIII_HHs": null, "P_D__HHs": "2" }, "geometry": { "type": "Point", "coordinates": [ 85.948688657420192, 27.933386629220763 ] } },
{ "type": "Feature", "properties": { "Name": "Nading", "Category": "II", "HHs": "8", "Latitide": 27.9297456573, "Longitude": 85.962814327700002, "Nep_name": "gflbª", "Ward": 3, "Cat_nep": "@", "Ward_Nep": "#", "CatI_HHs": "0", "CatII_HHs": 11, "CatIII_HHs": null, "P_D__HHs": null }, "geometry": { "type": "Point", "coordinates": [ 85.962814327681556, 27.92974565730491 ] } },
{ "type": "Feature", "properties": { "Name": "Pangsherpu", "Category": "II", "HHs": "6", "Latitide": 27.9273972879, "Longitude": 85.940014411600004, "Nep_name": "kfªz]k'{", "Ward": 4, "Cat_nep": "@", "Ward_Nep": "$", "CatI_HHs": "0", "CatII_HHs": 6, "CatIII_HHs": null, "P_D__HHs": "2" }, "geometry": { "type": "Point", "coordinates": [ 85.940014411638614, 27.927397287922876 ] } },
{ "type": "Feature", "properties": { "Name": "Fulping", "Category": "II", "HHs": "17", "Latitide": 27.909784517599999, "Longitude": 85.941442088200006, "Nep_name": "k'mlNkª", "Ward": 4, "Cat_nep": "@", "Ward_Nep": "$", "CatI_HHs": "0", "CatII_HHs": 17, "CatIII_HHs": null, "P_D__HHs": "1" }, "geometry": { "type": "Point", "coordinates": [ 85.941442088242056, 27.909784517557334 ] } },
{ "type": "Feature", "properties": { "Name": "Bosisa", "Category": "II", "HHs": "34", "Latitide": 27.905361625400001, "Longitude": 85.910820606300007, "Nep_name": "af]l;;f", "Ward": 1, "Cat_nep": "@", "Ward_Nep": "!", "CatI_HHs": "0", "CatII_HHs": 34, "CatIII_HHs": null, "P_D__HHs": "6" }, "geometry": { "type": "Point", "coordinates": [ 85.910820606268814, 27.905361625408357 ] } },
{ "type": "Feature", "properties": { "Name": "Panthali", "Category": "II", "HHs": "22", "Latitide": 27.897603715, "Longitude": 85.917266268700004, "Nep_name": "kGynL", "Ward": 4, "Cat_nep": "@", "Ward_Nep": "$", "CatI_HHs": "0", "CatII_HHs": 22, "CatIII_HHs": null, "P_D__HHs": "1" }, "geometry": { "type": "Point", "coordinates": [ 85.917266268701027, 27.897603715017372 ] } },
{ "type": "Feature", "properties": { "Name": "Luksing Hindi", "Category": "II", "HHs": "33", "Latitide": 27.900254434600001, "Longitude": 85.922026380399998, "Nep_name": "n'lS;ª lxGbL", "Ward": 4, "Cat_nep": "@", "Ward_Nep": "$", "CatI_HHs": "0", "CatII_HHs": 33, "CatIII_HHs": null, "P_D__HHs": "3" }, "geometry": { "type": "Point", "coordinates": [ 85.922026380443256, 27.900254434577914 ] } },
{ "type": "Feature", "properties": { "Name": "Hindi", "Category": "II", "HHs": "57", "Latitide": 27.906486243, "Longitude": 85.921030179400006, "Nep_name": "lxGbL", "Ward": 4, "Cat_nep": "@", "Ward_Nep": "$", "CatI_HHs": "0", "CatII_HHs": 57, "CatIII_HHs": null, "P_D__HHs": "2" }, "geometry": { "type": "Point", "coordinates": [ 85.921030179435377, 27.906486242952294 ] } },
{ "type": "Feature", "properties": { "Name": "Chaku Bazar", "Category": "II", "HHs": "29", "Latitide": 27.883619742200001, "Longitude": 85.911950378599997, "Nep_name": "rfs' ahf/", "Ward": 4, "Cat_nep": "@", "Ward_Nep": "$", "CatI_HHs": "2", "CatII_HHs": 27, "CatIII_HHs": null, "P_D__HHs": null }, "geometry": { "type": "Point", "coordinates": [ 85.911950378627509, 27.883619742199606 ] } },
{ "type": "Feature", "properties": { "Name": "Chaku Milan", "Category": "II", "HHs": "10", "Latitide": 27.8818615976, "Longitude": 85.910572527599996, "Nep_name": "rfs' ldng", "Ward": 5, "Cat_nep": "@", "Ward_Nep": "%", "CatI_HHs": "0", "CatII_HHs": 10, "CatIII_HHs": null, "P_D__HHs": null }, "geometry": { "type": "Point", "coordinates": [ 85.91057252762991, 27.881861597579373 ] } },
{ "type": "Feature", "properties": { "Name": "Jambaldung", "Category": "II", "HHs": "11", "Latitide": 27.864704890599999, "Longitude": 85.908727255599999, "Nep_name": "HofDaNb'ª", "Ward": 5, "Cat_nep": "@", "Ward_Nep": "%", "CatI_HHs": "0", "CatII_HHs": 11, "CatIII_HHs": null, "P_D__HHs": "2" }, "geometry": { "type": "Point", "coordinates": [ 85.908727255619809, 27.864704890573382 ] } },
{ "type": "Feature", "properties": { "Name": "Gorehyang", "Category": "II", "HHs": "9", "Latitide": 27.863350977300001, "Longitude": 85.923070646599996, "Nep_name": "uf]/]Xofª", "Ward": 5, "Cat_nep": "@", "Ward_Nep": "%", "CatI_HHs": "0", "CatII_HHs": 9, "CatIII_HHs": null, "P_D__HHs": "1" }, "geometry": { "type": "Point", "coordinates": [ 85.923070646563218, 27.863350977261046 ] } },
{ "type": "Feature", "properties": { "Name": "Serpang", "Category": "II", "HHs": "14", "Latitide": 27.869137330699999, "Longitude": 85.932849041599994, "Nep_name": "zkf{ª", "Ward": 5, "Cat_nep": "@", "Ward_Nep": "%", "CatI_HHs": "0", "CatII_HHs": 14, "CatIII_HHs": null, "P_D__HHs": null }, "geometry": { "type": "Point", "coordinates": [ 85.932849041566783, 27.869137330706273 ] } },
{ "type": "Feature", "properties": { "Name": "Chhyadi", "Category": "II", "HHs": "39", "Latitide": 27.870804143099999, "Longitude": 85.927604312900002, "Nep_name": "5\\ofbL", "Ward": 5, "Cat_nep": "@", "Ward_Nep": "%", "CatI_HHs": "0", "CatII_HHs": 39, "CatIII_HHs": null, "P_D__HHs": "3" }, "geometry": { "type": "Point", "coordinates": [ 85.927604312933099, 27.870804143140898 ] } },
{ "type": "Feature", "properties": { "Name": "Thangmilan", "Category": "II", "HHs": "15", "Latitide": 27.8729730218, "Longitude": 85.9302954833, "Nep_name": "yfªldng", "Ward": 5, "Cat_nep": "@", "Ward_Nep": "%", "CatI_HHs": "0", "CatII_HHs": 15, "CatIII_HHs": null, "P_D__HHs": "1" }, "geometry": { "type": "Point", "coordinates": [ 85.930295483330781, 27.87297302184777 ] } },
{ "type": "Feature", "properties": { "Name": "Balkhu", "Category": "II", "HHs": "19", "Latitide": 27.8500366516, "Longitude": 85.903383501799993, "Nep_name": "aNv'", "Ward": 5, "Cat_nep": "@", "Ward_Nep": "%", "CatI_HHs": "0", "CatII_HHs": 19, "CatIII_HHs": null, "P_D__HHs": null }, "geometry": { "type": "Point", "coordinates": [ 85.903383501750682, 27.850036651647642 ] } },
{ "type": "Feature", "properties": { "Name": "Ghipche", "Category": "II", "HHs": "58", "Latitide": 27.904782061100001, "Longitude": 85.843466379800006, "Nep_name": "l3Kr]", "Ward": 1, "Cat_nep": "@", "Ward_Nep": "!", "CatI_HHs": "1", "CatII_HHs": 57, "CatIII_HHs": null, "P_D__HHs": "10" }, "geometry": { "type": "Point", "coordinates": [ 85.84346637978642, 27.904782061082528 ] } },
{ "type": "Feature", "properties": { "Name": "Panglang (Bhaldung)", "Category": "II", "HHs": "13", "Latitide": 27.8771182491, "Longitude": 85.886258408200007, "Nep_name": "kfªnfª -efNb'ª_", "Ward": 1, "Cat_nep": "@", "Ward_Nep": "!", "CatI_HHs": "0", "CatII_HHs": 13, "CatIII_HHs": null, "P_D__HHs": "4" }, "geometry": { "type": "Point", "coordinates": [ 85.886258408227803, 27.877118249139709 ] } },
{ "type": "Feature", "properties": { "Name": "Valdung", "Category": "II", "HHs": "20", "Latitide": 27.884439850700002, "Longitude": 85.881097357300007, "Nep_name": "efNb'ª", "Ward": 1, "Cat_nep": "@", "Ward_Nep": "!", "CatI_HHs": "0", "CatII_HHs": 20, "CatIII_HHs": null, "P_D__HHs": null }, "geometry": { "type": "Point", "coordinates": [ 85.881097357306032, 27.884439850654829 ] } },
{ "type": "Feature", "properties": { "Name": "Chyangsing", "Category": "II", "HHs": "17", "Latitide": 27.887733024700001, "Longitude": 85.884661789899994, "Nep_name": "5\\ofªl;ª", "Ward": 1, "Cat_nep": "@", "Ward_Nep": "!", "CatI_HHs": "0", "CatII_HHs": 17, "CatIII_HHs": null, "P_D__HHs": "2" }, "geometry": { "type": "Point", "coordinates": [ 85.884661789892832, 27.887733024686977 ] } },
{ "type": "Feature", "properties": { "Name": "Anthali", "Category": "II", "HHs": "7", "Latitide": 27.8859638954, "Longitude": 85.877190282300006, "Nep_name": "cGynL", "Ward": 1, "Cat_nep": "@", "Ward_Nep": "!", "CatI_HHs": "0", "CatII_HHs": 7, "CatIII_HHs": "0", "P_D__HHs": "1" }, "geometry": { "type": "Point", "coordinates": [ 85.877190282334354, 27.885963895429093 ] } },
{ "type": "Feature", "properties": { "Name": "Panglang", "Category": "II", "HHs": "6", "Latitide": 27.872201410199999, "Longitude": 85.8914817693, "Nep_name": "kfªnfª", "Ward": 1, "Cat_nep": "@", "Ward_Nep": "!", "CatI_HHs": "0", "CatII_HHs": 6, "CatIII_HHs": null, "P_D__HHs": null }, "geometry": { "type": "Point", "coordinates": [ 85.891481769301706, 27.872201410232496 ] } },
{ "type": "Feature", "properties": { "Name": "Golepa", "Category": "II", "HHs": "9", "Latitide": 27.935644159399999, "Longitude": 85.942342410899997, "Nep_name": "uf]n]kf", "Ward": 4, "Cat_nep": "@", "Ward_Nep": "$", "CatI_HHs": "0", "CatII_HHs": 9, "CatIII_HHs": null, "P_D__HHs": null }, "geometry": { "type": "Point", "coordinates": [ 85.942342410923487, 27.935644159379635 ] } },
{ "type": "Feature", "properties": { "Name": "Fumachi", "Category": "II", "HHs": "20", "Latitide": 27.9315447446, "Longitude": 85.934008447899998, "Nep_name": "k'mdfrL", "Ward": 3, "Cat_nep": "@", "Ward_Nep": "#", "CatI_HHs": "0", "CatII_HHs": 16, "CatIII_HHs": "4", "P_D__HHs": null }, "geometry": { "type": "Point", "coordinates": [ 85.934008447894115, 27.93154474464318 ] } },
{ "type": "Feature", "properties": { "Name": "Mathillo Bulkute", "Category": "II", "HHs": "2", "Latitide": 27.861990313, "Longitude": 85.905637716800001, "Nep_name": "dflyNnf] a'Ns'6]", "Ward": 5, "Cat_nep": "@", "Ward_Nep": "%", "CatI_HHs": "0", "CatII_HHs": 0, "CatIII_HHs": "2", "P_D__HHs": null }, "geometry": { "type": "Point", "coordinates": [ 85.90563771681974, 27.861990312976054 ] } },
{ "type": "Feature", "properties": { "Name": "Gunsa", "Category": "II", "HHs": null, "Latitide": 27.871409310200001, "Longitude": 85.922626870100004, "Nep_name": "u'G;f", "Ward": 5, "Cat_nep": "@", "Ward_Nep": "%", "CatI_HHs": "0", "CatII_HHs": 0, "CatIII_HHs": null, "P_D__HHs": null }, "geometry": { "type": "Point", "coordinates": [ 85.922626870112964, 27.871409310223434 ] } },
{ "type": "Feature", "properties": { "Name": "Satbal", "Category": "II", "HHs": null, "Latitide": 27.868565705599998, "Longitude": 85.922090103399995, "Nep_name": ";Qmjn", "Ward": 5, "Cat_nep": "@", "Ward_Nep": "%", "CatI_HHs": "0", "CatII_HHs": 0, "CatIII_HHs": null, "P_D__HHs": null }, "geometry": { "type": "Point", "coordinates": [ 85.922090103367722, 27.86856570560516 ] } },
{ "type": "Feature", "properties": { "Name": "Cyamdada", "Category": "II", "HHs": "2", "Latitide": 27.8839765751, "Longitude": 85.928986223099997, "Nep_name": "Rofd8fF8f", "Ward": 4, "Cat_nep": "@", "Ward_Nep": "$", "CatI_HHs": "0", "CatII_HHs": 2, "CatIII_HHs": null, "P_D__HHs": null }, "geometry": { "type": "Point", "coordinates": [ 85.928986223148442, 27.883976575103596 ] } },
{ "type": "Feature", "properties": { "Name": "Thamigaun", "Category": "II", "HHs": null, "Latitide": 27.884260403799999, "Longitude": 85.919841652100004, "Nep_name": "yfdLufpmF", "Ward": 4, "Cat_nep": "@", "Ward_Nep": "$", "CatI_HHs": null, "CatII_HHs": 0, "CatIII_HHs": null, "P_D__HHs": null }, "geometry": { "type": "Point", "coordinates": [ 85.919841652090497, 27.884260403762202 ] } },
{ "type": "Feature", "properties": { "Name": "Tochepa", "Category": "II", "HHs": "1", "Latitide": 27.8815103417, "Longitude": 85.934368559000006, "Nep_name": "6f]r]kf", "Ward": 4, "Cat_nep": "@", "Ward_Nep": "$", "CatI_HHs": "0", "CatII_HHs": 1, "CatIII_HHs": null, "P_D__HHs": "1" }, "geometry": { "type": "Point", "coordinates": [ 85.934368558963698, 27.881510341704715 ] } }
]
}
